구,주소,상호,휘발유,경유,위도,경도
강서구,부산 강서구 낙동남로 432,해안주유소,1549,1399,35.1117866,128.8674669
강서구,부산 강서구 낙동남로 127 (송정동),신창에너지㈜직영 송정셀프주유소,1549,1409,35.1018859,128.8369645
강서구,부산 강서구 낙동북로 364,은마석유 경기장주유소,1557,1417,35.2119109,128.9680542
강서구,부산 강서구 낙동북로 209 (대저1동),동방석유㈜직영 대저주유소,1557,1417,35.2142058,128.9516934
강서구,부산 강서구 낙동북로 142,우리2주유소,1557,1417,35.2153294,128.9443642
강서구,부산 강서구 낙동북로 42 (강동동),서강주유소,1557,1417,35.2187726,128.9341666
강서구,부산 강서구 공항로 469 (대저2동),세기상사(주) 공항주유소,1569,1449,35.1497489,128.9523993
강서구,부산 강서구 공항로 483,은마석유(주)직영 강서주유소,1569,1429,35.1508022,128.9528603
강서구,부산 강서구 가락대로 706,부산신항주유소,1569,1429,35.1369115,128.8696791
강서구,부산 강서구 가락대로 834,㈜BSJ신항만물류주유소,1569,1429,35.1464424,128.8773419
강서구,부산 강서구 낙동북로 65 (강동동),(주)천일에너지 천일주유소,1569,1417,35.2185489,128.9368755
강서구,부산 강서구 생곡로 40 (녹산동),(주)경인에너지,1569,1429,35.1247053,128.8975213
강서구,부산 강서구 가락대로 845,OS신항주유소,1569,1429,35.1475143,128.8770028
강서구,부산 강서구 봉림길94번길 89(봉림동),CJ 성민제2주유소,1569,1429,35.1736199,128.895235
강서구,부산 강서구 르노삼성대로 572 (명지동),명지농협주유소,1569,1389,35.0986439,128.9277957
강서구,부산 강서구 생곡로 272,(주)시큐 국제산단주유소,1569,1429,35.1372944,128.8857959
강서구,부산 강서구 명지국제8로 272,지에스칼텍스㈜ 동성셀프주유소,1569,1489,35.0974374,128.9224725
강서구,부산 강서구 가락대로 1027,CJ대한통운㈜ 신항 P-OIL,1569,1429,35.1615189,128.8872092
강서구,부산 강서구  낙동남로 514,은마석유(주)신호주유소,1569,1429,35.1121623,128.8763404
강서구,부산 강서구 공항로 1217 (대저1동),공항대로주유소,1569,1429,35.2178733,128.9571586
강서구,부산 강서구 가락대로 389 (송정동),CJ대한통운㈜ 성민주유소,1569,1429,35.1073909,128.8471073
강서구,부산 강서구 가락대로 546 (구랑동),구랑주유소,1569,1429,35.1274383,128.8542168
강서구,부산 강서구 호계로 200 (죽동동),(주)우양네트웍스 송산주유소,1575,1448,35.2090131,128.8909415
강서구,부산 강서구 가락대로 963,(주)범방주유소,1579,1439,35.156477,128.8844438
강서구,부산 강서구 르노삼성대로 604 (명지동),대양석유(주)한마음주유소,1579,1439,35.101597,128.9286125
강서구,부산 강서구 공항로 381 (대저2동),맥도주유소,1579,1439,35.1423125,128.9492062
강서구,부산 강서구 호계로 1 (죽림동),오봉주유소,1588,1449,35.1959192,128.9010807
강서구,부산 강서구 가락대로 1417,제일주유소,1588,1458,35.1911088,128.9038711
강서구,부산 강서구 신항남로 507,내트럭(주) 부산신항남컨사업소,1589,1499,35.0674602,128.8338993
강서구,부산광역시 강서구  낙동남로 448 (녹산동),부산축산업협동조합 농협주유소,1589,1446,35.1138853,128.8844628
강서구,부산 강서구 낙동남로 501 (녹산동),㈜도감에너지,1589,1439,35.1127562,128.8744421
강서구,부산 강서구 평강로 309 (대저1동),평강주유소,1596,1446,35.2126119,128.9465611
강서구,부산 강서구 공항로 1423 (대저1동),이왕주유소,1598,1468,35.2149639,128.9700669
강서구,부산 강서구 가락대로 1361 (봉림동),금룡주유소,1598,1468,35.1688485,128.8946363
강서구,부산 강서구 낙동남로 700,녹산주유소,1599,1429,35.1199308,128.8925583
강서구,부산 강서구 공항로 799 (대저2동),(주)우양네트웍스 구도일주유소 삼광,1599,1459,35.1783867,128.95762
강서구,부산 강서구 공항진입로 25 (대저2동),김해공항주유소,1599,1459,35.1809924,128.9554027
강서구,부산 강서구 가락대로1243번길 68,신항만주유소,1599,1435,35.1765273,128.8973495
강서구,부산 강서구 녹산산업북로 119 (송정동),녹산화물터미널주유소,1628,1498,35.0992685,128.8372639
강서구,부산 강서구 생곡로 337 (생곡동),유성주유소,1628,1468,35.1381968,128.8789379
강서구,부산 강서구 낙동남로 667 (녹산동),우리들주유소,1628,1465,35.1182288,128.8897197
강서구,부산 강서구 대저로 283 (대저1동),명품주유소,1658,1508,35.2122785,128.9830328
강서구,부산 강서구 체육공원로 66 (대저1동),(주)시큐 대저고속주유소,1658,1429,35.2097568,128.9746517
강서구,부산 강서구 과학산단로 297 (지사동),(주)소모 과학셀프주유소,1659,1499,35.1486221,128.8372388
강서구,부산광역시 강서구 남해2지선고속도로 19,서부산주유소(순천방향),1668,1528,35.1622454,128.9221863
강서구,부산 강서구 낙동남로 1042,명지주유소,1678,1558,35.1126998,128.9266869
강서구,부산 강서구 명지국제2로28번길 36,(주)서호주유소,1678,1518,35.0921737,128.9090982
강서구,부산 강서구 가락대로210번길 102,만선주유소,1698,1558,35.1054222,128.8439241
강서구,부산 강서구 가락대로 649,비케이원(주) 미래드림주유소,1709,1559,35.1347164,128.8638059
강서구,부산 강서구 거가대로 2571,대양산업(주)대양가덕주유소,1788,1638,35.0228415,128.8078705
강서구,부산 강서구 르노삼성대로 372,광신석유(주)직영 명지주유소,1899,1897,35.0893564,128.8975986
사하구,부산 사하구 장평로 177 (장림동),서부산농협주유소,1559,1389,35.0818527,128.9724283
사하구,부산 사하구 장평로 152 (장림동),새마당주유소 (주)지오에너지,1569,1389,35.0797432,128.9729467
사하구,부산 사하구 다대로 292 (장림동),장림대흥주유소,1569,1389,35.0765381,128.9783015
사하구,부산 사하구 다대로 575 (다대동),전진알뜰주유소,1574,1434,35.0552016,128.9708083
사하구,부산 사하구 을숙도대로 564,부영석유 도매주유소,1574,1434,35.0850714,128.9674708
사하구,부산 사하구 감천로 79 (감천동),에스씨(주) 감천주유소,1574,1434,35.0892358,129.0010713
사하구,부산 사하구 을숙도대로 583,사하주유소,1574,1434,35.0854872,128.9693107
사하구,부산 사하구 을숙도대로 530 (신평동),광신홀딩스㈜ 직영 을숙도대로주유소,1574,1434,35.085085,128.9636836
사하구,부산 사하구 감천항로 445 (구평동),동원주유소(주),1574,1465,35.0542059,128.9953369
사하구,부산 사하구 다대로 581 (다대동),토성셀프주유소,1574,1434,35.054792,128.9708838
사하구,부산 사하구 사하로 150,회화에너지,1574,1434,35.0949598,128.9936811
사하구,부산광역시 사하구  사하로 129,대양석유(주) SK괴정주유소,1574,1434,35.0934703,128.9925083
사하구,부산 사하구 하신중앙로 165,극동유화(주) 부산주유소,1595,1475,35.0930867,128.9629145
사하구,부산 사하구 하신중앙로 240,남성주유소,1597,1497,35.099835,128.9610191
사하구,부산 사하구 낙동대로 339,(주)천일에너지 대진주유소,1597,1477,35.1002675,128.9797995
사하구,부산 사하구 다대로 280 (장림동),㈜대로주유소 오일,1599,1379,35.0775271,128.9760997
사하구,부산 사하구 낙동대로 312 (괴정동),조은셀프주유소,1618,1498,35.1001101,128.9831903
사하구,부산 사하구 하신중앙로 166 (신평동),신평주유소,1637,1517,35.0937346,128.9631461
사하구,부산 사하구 을숙도대로 821,대창제1주유소,1639,1479,35.0859034,128.9941181
사하구,부산 사하구 을숙도대로 712,다대로주유소,1648,1508,35.0844669,128.9832217
사하구,부산 사하구 감천항로 20,인도에너지(주),1658,1498,35.0854401,128.9977344
사하구,부산 사하구 장림로 287 (장림동),장림주유소,1678,1478,35.0842059,128.9796012
사하구,부산 사하구 하신중앙로 55 (신평동),대호주유소,1685,1528,35.0839867,128.9646363
사하구,부산 사하구 장림번영로 7 (장림동),SK에너지(주)국영,1699,1589,35.0819118,128.9668465
사하구,부산 사하구 을숙도대로 728,선경주유소,,1419,35.0848601,128.9851397
사하구,부산 사하구 감천항로 225,비에스에너지㈜메가오션주유소,,,35.0728233,128.9906917
서구,부산 서구 충무대로 240,피치스주유소 빙고점,1528,1388,35.0919615,129.0244026
서구,부산 서구 충무대로 126,충무대로 셀프주유소 와이케이에너지㈜,1528,1388,35.0816386,129.0253715
서구,부산 서구 충무대로 108 (암남동),남항대교주유소,1528,1388,35.0805766,129.0238466
서구,부산 서구 보수대로 220 (동대신제3동),(주)디시에너지 운동장,1578,1438,35.1171053,129.0188043
서구,부산 서구 대영로 91,(주)디시에너지 대신지점,1588,1468,35.1114057,129.0210485
서구,부산 서구 대영로 88,고려주유소 대신점,1589,1469,35.1108586,129.0207879
서구,부산 서구 충무대로 150 (남부민동),남부주유소 (송도아랫길),1599,1449,35.0873609,129.0232453
서구,부산 서구 구덕로 273 (서대신동1가),(주)부영에너지직영신일주유소,1698,1589,35.1097703,129.0172694
서구,부산 서구 원양로 260,㈜한국페트로 스타2주유소,1868,1434,35.0742783,129.0064934
서구,부산 서구 감천로 227,피치스주유소 송도점,1888,1408,35.0821804,129.0125945
수영구,부산 수영구 광남로 241 (민락동),마린타이거주유소,1563,1433,35.1594454,129.1253524
수영구,부산 수영구 광남로 83,(주)경인에너지 광안리주유소,1563,1433,35.1496964,129.113866
수영구,부산 수영구 광남로 176,(주)세왕에너지 세진주유소,1563,1433,35.1564917,129.1195737
수영구,부산 수영구 과정로 23,신영주유소,1574,1434,35.1735112,129.10804
수영구,부산 수영구 민락본동로 30,센텀타이거주유소,1578,1458,35.1594492,129.1286839
수영구,부산 수영구 수영로 731,대양산업(주)대영주유소,1583,1494,35.1688937,129.1192554
수영구,부산 수영구 연수로 250,지에스칼텍스㈜ 인성셀프주유소,1624,1494,35.1730045,129.0979111
수영구,부산 수영구  연수로 254 (망미동),땡큐망미주유소,1624,1494,35.1729852,129.0989666
수영구,부산 수영구 수영로 491 (남천동),금련산주유소,1675,1555,35.1424905,129.1028311
수영구,부산 수영구 수영로 558,지에스칼텍스(주)부산주유소,1685,1539,35.1553349,129.1128987
수영구,부산 수영구 연수로 239,지에스칼텍스(주) 언덕주유소,1689,1569,35.1735966,129.0967003
수영구,부산 수영구 연수로 411,SK에너지(주)강일주유소,1798,1698,35.1683006,129.1143225
수영구,부산 수영구 좌수영로 147 (망미동),(주)청유주유소,1798,1648,35.1770096,129.1176086
수영구,"부산 수영구 과정로 4,  (망미동)",금호주유소,1799,1649,35.1722215,129.1095381
연제구,부산 연제구 반송로 68,하얀100연산주유소,1549,1399,35.1897622,129.0870872
연제구,부산 연제구  거제대로 130 (거제동),아시아드주유소,1559,1419,35.1800682,129.0694764
연제구,부산 연제구 고분로 51 (연산동),(주)좋은기름나라연산주유소지점,1565,1425,35.1858103,129.0878353
연제구,부산 연제구 중앙대로 1179,현대오일뱅크㈜직영 연산셀프주유소,1568,1429,35.1926978,129.0794286
연제구,부산 연제구 연안로 20,연안로주유소,1574,1434,35.1896289,129.1074533
연제구,부산 연제구 월드컵대로 249 (거제동),성학주유소,1588,1454,35.1901534,129.0699011
연제구,부산 연제구 과정로 325,자이주유소,1599,1459,35.1893797,129.0920261
연제구,부산 연제구 거제대로 98,광동페트로㈜ 감사드림주유소,1624,1494,35.1772008,129.0683523
연제구,부산 연제구 과정로 208,광신홀딩스㈜ 직영 토곡주유소,1624,1494,35.1881011,129.1048652
연제구,부산 연제구 과정로 134 (연산동),금천셀프주유소,1645,1545,35.1833008,129.1073562
연제구,부산 연제구 아시아드대로 107 (거제동),현대오일뱅크(주)직영 부산현대주유소,1669,1535,35.1938554,129.0661901
연제구,부산 연제구 온천천남로 86 (연산동),영웅주유소,1699,1549,35.1910667,129.0998465
연제구,부산 연제구 연수로 87,연제주유소,1719,1579,35.1756756,129.0802389
연제구,부산 연제구 과정로 120 (연산동),SK에너지(주)부흥셀프주유소,1798,1598,35.1821632,129.1074423
영도구,부산 영도구 해양로 270,해양특구주유소,1692,1572,35.0841207,129.0769752
영도구,부산 영도구 해양로 212,동현주유소,1692,1572,35.087155,129.0724537
영도구,부산 영도구 태종로 806-1,태종대온천주유소,1697,1577,35.0645758,129.0806143
영도구,부산 영도구 태종로 376 (청학동),태종에너지청학주유소,1698,1578,35.0914605,129.0613241
영도구,부산 영도구 해양로 128 (청학동),세기상사㈜ 대성주유소,1698,1578,35.0939563,129.0623678
영도구,부산 영도구 태종로 290 (청학동),SK에너지(주)직영 태종로주유소,1698,1578,35.0960642,129.0596663
영도구,부산 영도구 남항서로 96(남항동2가),남항주유소,1833,1723,35.0890253,129.0364668
영도구,부산 영도구 태종로 181 (봉래동4가),(주)나부코직영 우원주유소,1848,1738,35.0912922,129.0493362
중구,부산 중구 대청로 153 (중앙동5가),고려주유소,1695,1565,35.1021845,129.0371679
해운대구,부산 해운대구 해운대로 1249 (송정동),삼양주유소,1519,1374,35.1829714,129.2004548
해운대구,부산 해운대구 해운대로 1184,㈜영원석유 하늘주유소,1519,1394,35.1904693,129.2045115
해운대구,부산 해운대구 해운대로 1178,㈜영원석유 영원주유소,1519,1374,35.1899723,129.2042809
해운대구,부산 해운대구 해운대로 1226 (송정동),오시리아주유소,1519,1374,35.1943669,129.2055627
해운대구,부산 해운대구 해운대로 1217,송정역주유소,1519,1374,35.1935674,129.2048498
해운대구,부산 해운대구 해운대로 1238 (송정동),한양 브라보주유소,1535,1395,35.1951875,129.2058563
해운대구,부산 해운대구 해운대로 551 (우동),(주)조은하루주유소,1554,1414,35.1605466,129.152127
해운대구,부산 해운대구 해운대로 592 (우동),동방석유㈜ 직영 해변주유소,1554,1414,35.1643347,129.1604455
해운대구,부산 해운대구 해운대로 211 (재송동),대양산업(주)동화주유소,1554,1414,35.1885618,129.1217565
해운대구,부산 해운대구 반송로 875 (반송동),동부산셀프주유소,1562,1412,35.2305892,129.1500288
해운대구,부산 해운대구 반송로 780,반송제일주유소,1562,1412,35.2230629,129.145842
해운대구,부산 해운대구 해운대로 285 (우동),구도일주유소 센텀시티,1569,1436,35.1752588,129.131513
해운대구,부산 해운대구 반송로 782,양천석유(주)덕진셀프주유소반송점,1574,1438,35.223445,129.1459703
해운대구,부산 해운대구 해운대로 615 (우동),지에스칼텍스(주)해운주유소,1574,1509,35.1634379,129.1579275
해운대구,부산 해운대구 수영강변대로 568,광신석유(주)직영 수영강변대로주유소,1584,1459,35.2081118,129.1215364
해운대구,부산 해운대구 수영강변대로 590,지에스칼텍스(주)광안대로주유소,1584,1459,35.2102212,129.1219776
해운대구,부산 해운대구 반여로 153 (반여동),신촌셀프주유소,1584,1459,35.2050231,129.1253632
해운대구,부산광역시 해운대구  수영강변대로 504 (반여동),sc(주)센텀주유소,1584,1459,35.2028917,129.1187658
해운대구,부산 해운대구 좌동순환로 419 (중동),(주)이엠석유 대흥주유소,1594,1474,35.161658,129.17505
해운대구,부산 해운대구 재반로 163 (재송동),동해주유소,1594,1469,35.1926935,129.1284012
해운대구,부산 해운대구 해운대로 179 (재송동),HD현대오일뱅크㈜직영 센텀셀프주유소,1594,1569,35.1927672,129.1227133
해운대구,부산 해운대구 달맞이길 57 (중동),(주)대양씨앤씨 달맞이주유소,1594,1474,35.1606604,129.1735137
해운대구,부산 해운대구 해운대로573번길 16,SK에너지(주) 돌고래주유소,1598,1438,35.1616799,129.1546533
해운대구,부산 해운대구 대천로 82 (좌동),SK에너지(주)신도시주유소,1598,1488,35.1735693,129.1717131
해운대구,부산 해운대구 해운대로 345 (우동),SK에너지(주) 마리나주유소,1598,1438,35.1706011,129.1560231
해운대구,부산 해운대구 해운대로 1075,SK에너지㈜직영 송정셀프주유소,1598,1498,35.1818052,129.1993677
해운대구,부산 해운대구 좌동순환로 375,해운대주유소,1633,1513,35.1632033,129.1795014
해운대구,부산 해운대구 양운로 107 (좌동),HD현대오일뱅크㈜직영 장산IC주유소,1649,1539,35.1723045,129.173541
해운대구,부산 해운대구 수영강변대로 276,SK에너지(주)직영 해운대센텀주유소,1649,1549,35.183528,129.1191203
해운대구,부산 해운대구 해운대해변로 44 (우동),에스씨(주) 마리나타운주유소,1698,1598,35.1630767,129.1380328
해운대구,부산 해운대구 반송로 781 (석대동),동양가스(주) 명품주유소반송점,1709,1579,35.2233834,129.1454026
금정구,부산 금정구 반송로 420 (금사동),한길주유소 금사점 한솔유화㈜,1549,1419,35.2141828,129.1102295
금정구,부산 금정구 두실로 2,훼미리알뜰주유소,1575,1437,35.2605587,129.0909988
금정구,부산 금정구 중앙대로 2130,청룡명품주유소,1575,1437,35.274527,129.0928928
금정구,부산 금정구 중앙대로 2191 (노포동),은마석유 노포주유소,1575,1437,35.280053,129.0931034
금정구,부산광역시 금정구  부곡로 67 (부곡동),금두꺼비주유소,1587,1457,35.2222993,129.0901103
금정구,부산 금정구 중앙대로 1972,금강주유소,1589,1455,35.2609329,129.0917364
금정구,부산 금정구 중앙대로 1646,한길주유소 부산점 한솔유화㈜,1597,1467,35.2312689,129.0918732
금정구,부산 금정구 금강로 721,신화주유소,1618,1488,35.2719461,129.0887701
금정구,"부산 금정구 금정로 216,  (구서동)",동진주유소,1619,1479,35.2433788,129.0902016
금정구,부산 금정구 반송로 364 (서동),에이원주유소,1625,1395,35.2109171,129.1058791
금정구,부산 금정구 중앙대로 1597,비케이원㈜ 대박드림주유소,1629,1499,35.2274093,129.089411
금정구,부산 금정구 금샘로 399 (구서동),금정산주유소,1637,1497,35.2588497,129.0838548
금정구,부산 금정구 금샘로 21 (장전동),식물원주유소,1685,1565,35.2277823,129.0776608
금정구,부산 금정구  반송로 391 (서동),동양주유소,1687,1567,35.2131399,129.1070593
금정구,부산 금정구 반송로 463 (금사동),새석대주유소,1697,1577,35.2158252,129.1145594
금정구,부산 금정구 중앙대로 2044 (남산동),남산주유소,1698,1568,35.2666312,129.0930617
금정구,부산 금정구 중앙대로 1782 (부곡동),지에스칼텍스(주)영풍주유소,1709,1579,35.2432973,129.0936859
기장군,부산 기장군 기장읍 기장대로 343,기장대로 셀프주유소 와이케이에너지㈜,1519,1374,35.2263198,129.2141277
기장군,부산광역시 기장군 일광면 기장대로 996,신아시아드주유소/충전소 은마석유㈜,1519,1374,35.2822764,129.2334711
기장군,부산 기장군 기장읍 기장대로 84,내리주유소,1529,1395,35.204816,129.2067475
기장군,부산 기장군 일광면 기장대로 1230,월드컵주유소,1539,1394,35.3030144,129.2391247
기장군,부산 기장군 일광면 기장대로 1195,세방주유소,1549,1415,35.2997494,129.2377263
기장군,부산 기장군 일광면 기장대로 677,삼성셀프주유소,1565,1435,35.2552462,129.2230157
기장군,부산 기장군 장안읍 기장대로 1453,선암주유소,1565,1455,35.3217718,129.2415624
기장군,부산 기장군 기장읍 차성로 241,(주)동광주유소,1565,1414,35.239102,129.2131815
기장군,부산 기장군 정관면 정관로 835,공단신도시주유소,1565,1465,35.3249049,129.2033687
기장군,부산 기장군 일광면 기장대로 710,용문주유소,1565,1435,35.2576099,129.225618
기장군,부산 기장군 기장읍 반송로 1517,하영주유소,1565,1435,35.2517331,129.2076995
기장군,부산 기장군 일광면 기장대로 670,기장IC주유소,1565,1435,35.2542181,129.2232983
기장군,부산 기장군 기장읍 반송로 1407,부경셀프주유소,1565,1415,35.2544571,129.1959703
기장군,부산 기장군 일광면 기장대로 1291,국제주유소,1569,1449,35.3082071,129.2403256
기장군,부산 기장군 기장읍 반송로 1653,삼거리주유소,1569,1439,35.2514415,129.2189303
기장군,부산 기장군 정관면 정관로 249,대영주유소,1578,1454,35.3447601,129.1594281
기장군,부산 기장군 정관면 정관로 787,기분조은주유소,1580,1465,35.3235495,129.1984631
기장군,부산 기장군 장안읍 정관로 1148,㈜첼시주유소,1580,1465,35.3207773,129.2362466
기장군,부산 기장군 정관면 정관로 901,정관신도시주유소/충전소,1580,1465,35.3246244,129.2104979
기장군,부산 기장군 정관면 정관로 779,백운1주유소,1580,1478,35.323581,129.1977344
기장군,부산 기장군 신정관로 183,(주)천일에너지 천일주유소,1580,1465,35.3289052,129.2021088
기장군,부산 기장군 장안읍 정관로 1115,달음산주유소,1580,1465,35.3222947,129.2330157
기장군,부산 기장군 장안읍 좌동길 47,의학원self주유소,1580,1465,35.3214853,129.2420427
기장군,부산 기장군 일광면 기장대로 1037,동부산농협클린주유소,1584,1434,35.2862489,129.2332836
기장군,부산 기장군 장안읍 좌동길 45,뉴장안IC주유소,1585,1465,35.3212456,129.2419696
기장군,부산 기장군 일광면 일광로 722,오성주유소,1593,1453,35.3061576,129.2568217
기장군,부산 기장군 장안읍 기장대로 1586,장안IC(상)주유소,1598,1488,35.3324999,129.2476659
기장군,부산 기장군 철마면 반송로 1300,안평주유소,1598,1478,35.2483619,129.1873228
기장군,부산 기장군 철마면 반송로 983,(주)동남주유소,1598,1478,35.2361427,129.1592753
기장군,부산 기장군 기장읍 대변로 13,태양주유소,1617,1497,35.2348341,129.218858
기장군,부산 기장군 장안읍 기장대로 1751,(주)푸른숲self주유소,1618,1478,35.3458601,129.2517726
기장군,부산 기장군 정관면 신정관로 188,창암주유소,1625,1445,35.3294648,129.2013424
기장군,부산 기장군 장안읍 기장대로 1673,(주)더힘찬주유소,1627,1487,35.3402687,129.2480429
기장군,부산 기장군 장안읍 기장대로 1615,장안IC(하)주유소,1628,1488,35.3350449,129.2469511
기장군,부산 기장군 장안읍 기장대로 2217,명례주유소,1628,1478,35.3847776,129.2554077
기장군,부산 기장군 장안읍 하근3길 8,솔밭주유소,1635,1495,35.3513882,129.2551035
기장군,부산 기장군 장안읍 동해고속도로 25,KH에너지㈜직영 장안주유소(부산방향),1638,1508,35.3771167,129.2468056
기장군,부산 기장군 장안읍 동해고속도로 26,KH에너지㈜직영 장안주유소(울산방향),1638,1508,35.3817548,129.2484978
기장군,부산 기장군 정관면 정관로 833,공단주유소,1648,1528,35.324637,129.2029852
기장군,부산 기장군 기장읍 기장대로 530,동양주유소/기장충전소,1659,1499,35.2423658,129.2207461
기장군,부산 기장군 기장읍 반송로 1559,월드주유소,1664,1524,35.2485158,129.2102454
기장군,부산 기장군 기장읍 기장해안로 426,기장수협주유소,1799,1649,35.2129767,129.2218126
기장군,부산 기장군 정관면 정관덕산길 21,(주)SK정관주유소,1799,1599,35.3233017,129.182358
기장군,부산 기장군 정관면 신정관로 188,창암2주유소,,1445,35.3294648,129.2013424
남구,부산 남구 신선로 261,내트럭(주)부산용당,1563,1499,35.1120624,129.0936648
남구,부산 남구 황령대로 401-2 (대연동),대일주유소,1563,1433,35.1442645,129.1010766
남구,부산 남구 황령대로 343,사랑드림주유소,1563,1433,35.1473815,129.0957109
남구,부산 남구 신선로 168,내트럭(주)부산사업소,1563,1499,35.1099927,129.0815001
남구,부산 남구 신선로 448,(주)경인석유,1568,1439,35.124789,129.1004606
남구,부산 남구 우암로 204,우암주유소,1573,1443,35.1249808,129.0745836
남구,부산 남구 신선로 351 (용당동),은마석유주식회사,1573,1443,35.1156418,129.0947856
남구,부산 남구 황령대로 346 (대연동),금강석유(주) 영웅주유소,1573,1443,35.1466209,129.0956512
남구,부산 남구 신선로 392,은마석유㈜ 용당CY주유소,1573,1443,35.1201252,129.0983377
남구,부산 남구  신선로 316 (용당동),북항대교주유소,1573,1443,35.1160618,129.0930799
남구,부산 남구 우암로 232,우암로셀프주유소,1573,1443,35.1254082,129.0715037
남구,부산 남구 신선로 387 (용당동),(주)세일 부산항주유소,1573,1443,35.1203057,129.097481
남구,부산 남구 유엔로 155,(주)문화주유소,1579,1449,35.130392,129.0929975
남구,부산 남구 수영로 22 (문현동),매일주유소,1588,1458,35.1365668,129.0700069
남구,부산 남구 유엔로 42,성지셀프주유소,1594,1457,35.127005,129.0815633
남구,부산 남구 용호로 116,분포셀프주유소,1595,1465,35.1219479,129.1120078
남구,부산 남구 신선로 442 (용당동),반도주유소,1597,1457,35.1242977,129.1001678
남구,부산 남구 우암로 374 (문현동),문현주유소,1598,1488,35.1352643,129.0678984
남구,부산 남구 유엔로 202,지에스칼텍스㈜ 유엔주유소,1599,1469,35.1298354,129.0983295
남구,부산 남구 용호로 60 (용호동),지에스칼텍스㈜ 비치주유소,1599,1469,35.1257996,129.1103311
남구,부산 남구 신선로 252,한길주유소 용당점 한솔유화㈜,1609,1459,35.1103671,129.0922009
남구,부산 남구 우암로 92 (감만동),삼화주유소,1615,1475,35.1185969,129.0807189
남구,부산 남구 용호로 172 (용호동),구도일주유소용호,1619,1489,35.1171251,129.1109918
남구,부산 남구 황령대로98번길 75 (문현동),금융단지주유소,1628,1498,35.144292,129.079907
남구,부산 남구 남구 전포대로 7,동명주유소,1628,1498,35.1375901,129.0673614
남구,부산광역시 남구 문현로 67 (문현동),대성주유소,1719,1599,35.1438018,129.0765211
남구,부산 남구 신선로 173 (감만동),인터지스(주)인터지스주유소,1739,1599,35.1165482,129.0826625
남구,부산 남구 북항로 108,굿오일주유소,,1465,35.1088828,129.0820216
동구,부산 동구 충장대로 281 (좌천동),부산벙커앤오일 청구주유소,1580,1445,35.1341372,129.054906
동구,부산 동구 충장대로 305 (좌천동),CJ대한통운㈜ 부산주유소,1580,1445,35.1339142,129.0556227
동구,부산 동구 성남로 74 (범일동),(주)대양씨앤씨직영주유소,1583,1445,35.131018,129.0573378
동구,부산 동구 중앙대로 414 (좌천동),구도일주유소 부산진,1585,1455,35.1359102,129.0554913
동구,부산 동구  중앙대로 302 (초량동),동방석유(주)초량주유소,1585,1455,35.123477,129.0445736
동구,부산 동구 성남로 42 (좌천동),대양대박주유소,1603,1475,35.1304784,129.0547822
동구,부산광역시 동구  자성로 127 (범일2동),동방석유(주)형제주유소,1618,1498,35.1374686,129.0640868
동구,부산 동구 중앙대로 168 (초량동),㈜삼현석유 천일주유소,1998,1698,35.1123058,129.0387887
동래구,부산 동래구 충렬대로 95,광신석유(주)직영 충렬대로주유소,1489,1349,35.2074394,129.0715907
동래구,부산 동래구 충렬대로 121 (온천동),동방석유(주)푸른주유소,1499,1344,35.2064321,129.0739197
동래구,부산 동래구 충렬대로 124,대일주유소,1499,1349,35.2058571,129.0738774
동래구,부산 동래구 반송로 245,㈜OS에너지 동호주유소,1499,1349,35.2026025,129.0989642
동래구,부산 동래구 반송로 303 (명장동),명장주유소,1499,1349,35.2067787,129.1027076
동래구,부산 동래구 충렬대로 51 (온천동),(주)삼보명진주유소,1549,1399,35.2091953,129.0666421
동래구,부산 동래구 우장춘로 56,한창주유소,1569,1439,35.2126238,129.0717236
동래구,부산 동래구 여고로 131 (사직동),한길주유소 교대점 한솔유화㈜,1588,1454,35.1993273,129.0770425
동래구,부산 동래구 충렬대로 460  (안락동),(주)대원에너지 대원주유소,1593,1433,35.1964797,129.1068334
동래구,부산 동래구 반송로 185 (안락동),대경주유소,1597,1457,35.1979546,129.0957774
동래구,부산 동래구 명륜로 2,온천주유소,1598,1468,35.2073343,129.083854
동래구,부산 동래구 충렬대로 330 (안락동),안락교차로주유소,1638,1498,35.1986128,129.0947046
동래구,부산 동래구  충렬대로 400 (안락동),보강주유소,1638,1488,35.1966824,129.1019319
동래구,부산 동래구  충렬대로 300 (낙민동),한양주유소,1646,1496,35.1966791,129.0925668
동래구,부산 동래구 충렬대로 463,충렬주유소,1668,1518,35.1955512,129.1089289
동래구,부산 동래구 미남로 38,대원주유소,1668,1518,35.1976716,129.0712633
부산진구,부산 부산진구 가야대로 402,(주)태화주유소,1559,1419,35.1514155,129.016742
부산진구,부산 부산진구 새싹로 61-1 (부암동),대양주유소,1563,1423,35.1627565,129.0544095
부산진구,부산 부산진구 백양대로 242,진성주유소,1569,1429,35.1571684,129.0242088
부산진구,부산 부산진구 백양대로 231,(주)주공에너지,1569,1429,35.1571734,129.0253393
부산진구,부산 부산진구 황령대로 66 (전포동),동방석유(주)황령산주유소,1573,1443,35.1494307,129.066588
부산진구,부산 부산진구 동평로 49,스마일주유소,1578,1438,35.1651574,129.0347939
부산진구,부산 부산진구 거제대로 84 (양정동),남부산고속주유소,1579,1434,35.1760653,129.0680004
부산진구,부산 부산진구 가야대로552번길 39,가야주유소,1579,1439,35.1522897,129.0329398
부산진구,부산 부산진구 신천대로 132,영우에너지 부전주유소,1583,1463,35.1575276,129.0537631
부산진구,부산광역시 부산진구  전포대로 178 (전포제3동),지에스칼텍스㈜케이제이주유소,1589,1549,35.1512326,129.0633747
부산진구,부산 부산진구 동천로 10 (전포동),동방석유(주)sk전포주유소,1598,1498,35.1498219,129.0630783
부산진구,부산 부산진구 동평로 398,(주)우양네트웍스 하마정주유소,1599,1459,35.1740914,129.0683879
부산진구,부산 부산진구 동평로 361 (양정동),광신석유(주)직영 양정주유소,1624,1494,35.1693024,129.070139
부산진구,부산 부산진구 동평로 239 (연지동),SK에너지(주) 연지오토self,1624,1494,35.1718674,129.0514595
부산진구,부산 부산진구  백양대로 234 (개금동),백양주유소,1659,1498,35.1569372,129.0236485
부산진구,부산 부산진구 백양대로 78 (당감동),명품주유소 당감점,1689,1559,35.1585083,129.0473096
부산진구,부산 부산진구 새싹로 230,럭키주유소,1698,1598,35.1767161,129.0487014
부산진구,부산 부산진구 백양순환로110번길 19 (부암동),한일주유소,1699,1599,35.1692068,129.0395274
부산진구,부산 부산진구 동평로 289 (연지동),지에스칼텍스㈜ 성지주유소,1699,1569,35.1716354,129.0583999
부산진구,부산 부산진구 동평로 21,대흥주유소,1728,1598,35.1647618,129.0317616
부산진구,부산 부산진구 가야대로 523 (가야동),대명주유소,1838,1718,35.1539404,129.0292202
북구,부산 북구 만덕대로 343 (만덕동),(주)삼보부림SELF주유소,1549,1399,35.213545,129.0419109
북구,부산 북구 만덕대로 331 (만덕동),삼보주유소/충전소,1549,1399,35.2134317,129.0409269
북구,부산 북구 백양대로 995 (구포동),광신석유(주)직영 백양대로주유소,1559,1419,35.194768,128.9933507
북구,부산 북구 시랑로 58 (구포동),경덕주유소,1565,1439,35.2003935,129.0050883
북구,부산 북구 금곡대로 712 (금곡동),금곡대로주유소,1569,1399,35.2702178,129.018756
북구,부산 북구 금곡대로 604 (금곡동),(주)세일 금곡주유소,1579,1419,35.2615576,129.014573
북구,부산 북구 금곡대로 37,북부산셀프주유소,1579,1439,35.2133995,129.0038454
북구,부산 북구 금곡대로 203,화명신도시주유소,1579,1439,35.226961,129.0109356
북구,부산 북구 사상로 619 (구포동),지에스칼텍스(주)구포셀프주유소,1589,1464,35.1994107,128.9909222
북구,부산 북구 만덕대로 170,만복드림주유소,1599,1499,35.2130042,129.0233637
북구,부산 북구 낙동대로 1642,성도주유소,1616,1488,35.2021195,128.9932407
북구,부산 북구 금곡대로 362,SK에너지(주)두꺼비,1649,1519,35.2407267,129.0144127
북구,부산 북구 의성로53번길 5,SK에너지㈜직영 삼진셀프주유소,1649,1519,35.2161188,129.0092472
북구,부산 북구 금곡대로 692,무지개주유소,1669,1419,35.2681895,129.0182667
북구,부산 북구 금곡대로 113 (덕천동),동양가스산업(주)명품주유소,1689,1559,35.2150408,129.0101288
북구,부산 북구 덕천로 275 (만덕동),SK에너지(주)신광셀프주유소,1769,1599,35.2098903,129.0342436
사상구,부산 사상구 낙동대로 1274 (삼락동),(주)가온에너지 더힘대로주유소,1548,1398,35.1739246,128.9770157
사상구,부산 사상구 낙동대로 753 (엄궁동),에스알디㈜더리치주유소,1559,1419,35.1224262,128.9791369
사상구,부산 사상구 가야대로 377,스마트주유소,1559,1419,35.1516812,129.0139716
사상구,부산 사상구 가야대로 329,용마주유소,1559,1419,35.1512467,129.008645
사상구,부산 사상구 백양대로 701 (덕포동),우리주유소 (주)시블링스,1559,1419,35.1746452,128.9884548
사상구,부산 사상구 가야대로 395,광신석유(주)직영 가야대로주유소,1559,1419,35.1508539,128.9946548
사상구,부산 사상구 학감대로 178,세원주유소,1564,1424,35.146891,128.9891171
사상구,부산 사상구 새벽로 154,(주)좋은기름나라새사상셀프주유소지점,1564,1424,35.154972,128.983306
사상구,부산 사상구 학감대로 70,㈜덕양에너지직영 굿모닝주유소,1564,1424,35.1391738,128.9926646
사상구,부산 사상구 가야대로 63,(주)젤코바,1564,1424,35.1515299,128.9796864
사상구,부산 사상구 낙동대로 681,엄궁주유소,1564,1424,35.1234684,128.9649464
사상구,부산 사상구 낙동대로 730 (엄궁동),가락타운주유소,1564,1424,35.1262098,128.9687631
사상구,부산 사상구 백양대로 480,성림주유소,1564,1424,35.1531698,128.9996938
사상구,부산 사상구 백양대로 477 (주례동),(주)지엠지 우경주유소,1564,1434,35.1516217,129.0055614
사상구,부산 사상구 학감대로 98 (학장동),(주)덕양에너지 직영 구덕산주유소,1564,1424,35.1404957,128.9901325
사상구,부산 사상구 가야대로 10 (감전동),부영석유(주)도매주유소,1564,1424,35.1517258,128.9738437
사상구,부산 사상구 학감대로 30 (학장동),에스씨(주) 새문주유소,1564,1424,35.1363924,128.9960658
사상구,부산 사상구 학감대로 170,서부산IC주유소,1564,1424,35.146111,128.9897359
사상구,부산 사상구 낙동대로 669 (엄궁동),(주)호림에너지 호림주유소,1564,1424,35.1290455,128.9782556
사상구,부산 사상구 백양대로 349 (주례동),원주유소,1564,1424,35.1525479,129.0027557
사상구,부산 사상구 학감대로 220 (감전동),㈜제이와이비젼 명성주유소,1565,1425,35.150601,128.9899922
사상구,부산 사상구 가야대로 150 (학장동),구룡주유소,1568,1428,35.1491508,128.9888716
사상구,부산 사상구 사상로 105,엔씨네트웍스(주)직영주유소,1568,1429,35.1562205,128.9901519
사상구,부산 사상구 강변대로 412 (엄궁동),지에스칼텍스(주)강변주유소,1574,1434,35.1222741,128.9619186
사상구,부산 사상구 강변대로 458 (엄궁동),지에스칼텍스(주)자이언트주유소,1574,1434,35.1258883,128.9632154
사상구,부산 사상구 낙동대로 994 (감전동),(주)부영에너지,1578,1438,35.1493405,128.971717
사상구,부산 사상구 낙동대로 1520 (삼락동),흥일주유소 주식회사,1598,1488,35.193805,128.9844389
사상구,부산 사상구 학장로 107,한라주유소,1627,1487,35.1411743,128.9788572
사상구,부산 사상구 새벽로 1 (학장동),아산주유소,1627,1487,35.1415779,128.9793112
사상구,부산 사상구 낙동대로 1316,중앙주유소,1628,1498,35.1775234,128.9766067
사상구,부산 사상구 백양대로 386 (주례동),경동주유소,1634,1474,35.1520303,129.0015317
사상구,부산 사상구 낙동대로 879 (감전동),산업주유소,1638,1518,35.1390636,128.9702163
사상구,부산 사상구 모덕로 69 (모라동),성경주유소,1638,1538,35.1817704,128.9839416
사상구,부산 사상구 새벽로 2,대흥오일뱅크주유소,1638,1518,35.1415899,128.9799761
사상구,부산 사상구 농산물시장로25번길 94,농산물주유소,1678,1558,35.1311674,128.9682262
사상구,부산 사상구 낙동대로 920 (감전동),새동창주유소,1678,1538,35.1546612,128.9795394
사상구,부산 사상구 낙동대로 978 (감전동),HD현대오일뱅크㈜직영 감전주유소,1679,1518,35.1474568,128.9709766
사상구,부산 사상구 낙동대로 1320,대림주유소,1679,1549,35.1779337,128.9765592
사상구,부산 사상구 낙동대로 935,광신홀딩스㈜ 직영 낙동대로주유소,1689,1544,35.1440055,128.9692699
사상구,부산 사상구 학감대로 73 (학장동),행복한셀프주유소,1689,1549,35.1388675,128.9918634
사상구,부산 사상구 낙동대로 1380,지에스칼텍스(주)서부주유소,1739,1599,35.1833254,128.9766853
사상구,부산 사상구 새벽로 207 (괘법동),아시아사상주유소,1797,1687,35.1597328,128.9837318
